{
            "type": "FeatureCollection", 
            "features": [
                {"type": "Feature", "properties": {"id": "paramaribo-suriname", "updt": "Aug 12, 2021", "name": "Paramaribo, Suriname", "ctry": "Paramaribo, Suriname", "car": "Yes"}, "geometry": {"type": "Point", "coordinates": [-55.173851000000326,5.82403] } },
    {"type": "Feature", "properties": {"id": "georgetown-guyana", "updt": "Oct 28, 2021", "name": "Georgetown, Guyana", "ctry": "Georgetown, Guyana", "car": "Yes"}, "geometry": {"type": "Point", "coordinates": [-58.15483499999928,6.804503] } },
    {"type": "Feature", "properties": {"id": "chaguaramas-trinidad-and-tobago", "updt": "Oct 28, 2021", "name": "Chaguaramas, Trinidad and Tobago", "ctry": "Chaguaramas, Trinidad and Tobago", "car": "Yes"}, "geometry": {"type": "Point", "coordinates": [-61.65081049999945,10.686136800000298] } },
    {"type": "Feature", "properties": {"id": "rockly-bay-trinidad-and-tobago", "updt": "Oct 28, 2021", "name": "Rockly Bay, Trinidad and Tobago", "ctry": "Rockly Bay, Trinidad and Tobago", "car": "Yes"}, "geometry": {"type": "Point", "coordinates": [-60.73534000000046,11.182456999999374] } },
    {"type": "Feature", "properties": {"id": "rock-sound-bahamas", "updt": "Oct 28, 2021", "name": "Rock Sound, Bahamas", "ctry": "Rock Sound, Bahamas", "car": "Yes"}, "geometry": {"type": "Point", "coordinates": [-76.5744468253916,24.424987000000584] } },
    {"type": "Feature", "properties": {"id": "george-town-cayman-islands", "updt": "Oct 28, 2021", "name": "George Town, Cayman Islands", "ctry": "George Town, Cayman Islands", "car": "Yes"}, "geometry": {"type": "Point", "coordinates": [-81.381704,19.2966] } },
    {"type": "Feature", "properties": {"id": "montego-bay-jamaica", "updt": "Oct 28, 2021", "name": "Montego Bay, Jamaica", "ctry": "Montego Bay, Jamaica", "car": "Yes"}, "geometry": {"type": "Point", "coordinates": [-77.92137900000016,18.46936000000045] } },
    {"type": "Feature", "properties": {"id": "ocho-rios-jamaica", "updt": "Aug 12, 2021", "name": "Ocho Rios, Jamaica", "ctry": "Ocho Rios, Jamaica", "car": "Yes"}, "geometry": {"type": "Point", "coordinates": [-77.10319145653193,18.398554763480178] } },
    {"type": "Feature", "properties": {"id": "bunkum-bay-montserrat", "updt": "Aug 12, 2021", "name": "Bunkum Bay, Montserrat", "ctry": "Bunkum Bay, Montserrat", "car": "Yes"}, "geometry": {"type": "Point", "coordinates": [-62.22016960060925,16.77230218462907] } },
    {"type": "Feature", "properties": {"id": "basseterre-saint-kitts-and-nevis", "updt": "Aug 12, 2021", "name": "Basseterre, Saint Kitts and Nevis", "ctry": "Basseterre, Saint Kitts and Nevis", "car": "Yes"}, "geometry": {"type": "Point", "coordinates": [-62.731216774492594,17.29863882853087] } },
    {"type": "Feature", "properties": {"id": "point-salines-grenada", "updt": "Aug 12, 2021", "name": "Point Salines, Grenada", "ctry": "Point Salines, Grenada", "car": "Yes"}, "geometry": {"type": "Point", "coordinates": [-61.79057834201777,12.008822041918535] } },
    {"type": "Feature", "properties": {"id": "kingstown-saint-vincent-and-the-grenadines", "updt": "Aug 12, 2021", "name": "Kingstown, Saint Vincent and the Grenadines", "ctry": "Kingstown, Saint Vincent and the Grenadines", "car": "Yes"}, "geometry": {"type": "Point", "coordinates": [-61.20825642759,13.145437164552533] } },
    {"type": "Feature", "properties": {"id": "chateaubelair-saint-vincent-and-the-grenadines", "updt": "Aug 12, 2021", "name": "Chateaubelair, Saint Vincent and the Grenadines", "ctry": "Chateaubelair, Saint Vincent and the Grenadines", "car": "Yes"}, "geometry": {"type": "Point", "coordinates": [-61.24083697091665,13.290916333074449] } },
    {"type": "Feature", "properties": {"id": "owia-saint-vincent-and-the-grenadines", "updt": "Aug 12, 2021", "name": "Owia, Saint Vincent and the Grenadines", "ctry": "Owia, Saint Vincent and the Grenadines", "car": "Yes"}, "geometry": {"type": "Point", "coordinates": [-61.14277795835048,13.373100524281398] } },
    {"type": "Feature", "properties": {"id": "conference-grenada", "updt": "Aug 12, 2021", "name": "Conference, Grenada", "ctry": "Conference, Grenada", "car": "Yes"}, "geometry": {"type": "Point", "coordinates": [-61.60638846976849,12.161209900388371] } },
    {"type": "Feature", "properties": {"id": "bequia-saint-vincent-and-the-grenadines", "updt": "Aug 12, 2021", "name": "Bequia, Saint Vincent and the Grenadines", "ctry": "Bequia, Saint Vincent and the Grenadines", "car": "Yes"}, "geometry": {"type": "Point", "coordinates": [-61.24470659708132,12.997564199053812] } },
    {"type": "Feature", "properties": {"id": "mustique-saint-vincent-and-the-grenadines", "updt": "Aug 12, 2021", "name": "Mustique, Saint Vincent and the Grenadines", "ctry": "Mustique, Saint Vincent and the Grenadines", "car": "Yes"}, "geometry": {"type": "Point", "coordinates": [-61.18712607146598,12.877712443605333] } },
    {"type": "Feature", "properties": {"id": "canouan-saint-vincent-and-the-grenadines", "updt": "Aug 12, 2021", "name": "Canouan, Saint Vincent and the Grenadines", "ctry": "Canouan, Saint Vincent and the Grenadines", "car": "Yes"}, "geometry": {"type": "Point", "coordinates": [-61.338957018594414,12.699637527038135] } },
    {"type": "Feature", "properties": {"id": "union-island-saint-vincent-and-the-grenadines", "updt": "Aug 12, 2021", "name": "Union Island, Saint Vincent and the Grenadines", "ctry": "Union Island, Saint Vincent and the Grenadines", "car": "Yes"}, "geometry": {"type": "Point", "coordinates": [-61.44318057757454,12.61140490841754] } },
    {"type": "Feature", "properties": {"id": "carriacou-grenada", "updt": "Aug 12, 2021", "name": "Carriacou, Grenada", "ctry": "Carriacou, Grenada", "car": "Yes"}, "geometry": {"type": "Point", "coordinates": [-61.47861756418861,12.473707095397089] } },
    {"type": "Feature", "properties": {"id": "pegwell-barbados", "updt": "Aug 12, 2021", "name": "Pegwell, Barbados", "ctry": "Pegwell, Barbados", "car": "Yes"}, "geometry": {"type": "Point", "coordinates": [-59.536333783870646,13.062605447541841] } },
    {"type": "Feature", "properties": {"id": "totness-suriname", "updt": "Aug 12, 2021", "name": "Totness, Suriname", "ctry": "Totness, Suriname", "car": "Yes"}, "geometry": {"type": "Point", "coordinates": [-56.3753863160845,5.88658231885745] } },
    {"type": "Feature", "properties": {"id": "copa-club-jamaica", "updt": "Aug 12, 2021", "name": "Copa Club, Jamaica", "ctry": "Copa Club, Jamaica", "car": "Yes"}, "geometry": {"type": "Point", "coordinates": [-76.68936118328716,17.94295278588291] } },
    {"type": "Feature", "properties": {"id": "bomba-belize", "updt": "Aug 12, 2021", "name": "Bomba, Belize", "ctry": "Bomba, Belize", "car": "Yes"}, "geometry": {"type": "Point", "coordinates": [-88.29445550119168,17.92561325213987] } },
    {"type": "Feature", "properties": {"id": "san-pedro-belize", "updt": "Aug 12, 2021", "name": "San Pedro, Belize", "ctry": "San Pedro, Belize", "car": "Yes"}, "geometry": {"type": "Point", "coordinates": [-87.97834244387919,17.911036510229252] } },
    {"type": "Feature", "properties": {"id": "toco-trinidad-and-tobago", "updt": "Aug 12, 2021", "name": "Toco, Trinidad and Tobago", "ctry": "Toco, Trinidad and Tobago", "car": "Yes"}, "geometry": {"type": "Point", "coordinates": [-60.949687274825834,10.831137615525023] } },
    {"type": "Feature", "properties": {"id": "pigeon-point-trinidad-and-tobago", "updt": "Aug 12, 2021", "name": "Pigeon Point, Trinidad and Tobago", "ctry": "Pigeon Point, Trinidad and Tobago", "car": "Yes"}, "geometry": {"type": "Point", "coordinates": [-60.8403123523081,11.165409723744887] } },
    {"type": "Feature", "properties": {"id": "kaliko-haiti", "updt": "Aug 12, 2021", "name": "Kaliko, Haiti", "ctry": "Kaliko, Haiti", "car": "Yes"}, "geometry": {"type": "Point", "coordinates": [-72.6087122185881,18.864587460663103] } },
    {"type": "Feature", "properties": {"id": "tortola-virgin-islands-u-k-", "updt": "Aug 12, 2021", "name": "Tortola, Virgin Islands (U.K.)", "ctry": "Tortola, Virgin Islands (U.K.)", "car": "Yes"}, "geometry": {"type": "Point", "coordinates": [-64.59724328461294,18.414781849275727] } },
    {"type": "Feature", "properties": {"id": "bridgetown-barbados", "updt": "Aug 12, 2021", "name": "Bridgetown, Barbados", "ctry": "Bridgetown, Barbados", "car": "Yes"}, "geometry": {"type": "Point", "coordinates": [-59.6133600964925,13.09895401478758] } },
    {"type": "Feature", "properties": {"id": "castries-saint-lucia", "updt": "Aug 12, 2021", "name": "Castries, Saint Lucia", "ctry": "Castries, Saint Lucia", "car": "Yes"}, "geometry": {"type": "Point", "coordinates": [-61.00681614060515,13.994222056803636] } },
    {"type": "Feature", "properties": {"id": "roseau-dominica", "updt": "Aug 12, 2021", "name": "Roseau, Dominica", "ctry": "Roseau, Dominica", "car": "Yes"}, "geometry": {"type": "Point", "coordinates": [-61.370731898428815,15.251799221839917] } },
    {"type": "Feature", "properties": {"id": "the-valley-anguilla", "updt": "Aug 12, 2021", "name": "The Valley, Anguilla", "ctry": "The Valley, Anguilla", "car": "Yes"}, "geometry": {"type": "Point", "coordinates": [-63.057205313090236,18.217405253293038] } },
    {"type": "Feature", "properties": {"id": "fresh-creek-bahamas", "updt": "Aug 12, 2021", "name": "Fresh Creek, Bahamas", "ctry": "Fresh Creek, Bahamas", "car": "Yes"}, "geometry": {"type": "Point", "coordinates": [-77.84460938833543,24.689806158505206] } },
    {"type": "Feature", "properties": {"id": "port-nelson-bahamas", "updt": "Aug 12, 2021", "name": "Port Nelson, Bahamas", "ctry": "Port Nelson, Bahamas", "car": "Yes"}, "geometry": {"type": "Point", "coordinates": [-74.84054657503572,23.652143168499805] } },
    {"type": "Feature", "properties": {"id": "george-town-bahamas", "updt": "Aug 12, 2021", "name": "George Town, Bahamas", "ctry": "George Town, Bahamas", "car": "Yes"}, "geometry": {"type": "Point", "coordinates": [-75.78800684134596,23.516551982193818] } },
    {"type": "Feature", "properties": {"id": "clarence-town-bahamas", "updt": "Aug 12, 2021", "name": "Clarence Town, Bahamas", "ctry": "Clarence Town, Bahamas", "car": "Yes"}, "geometry": {"type": "Point", "coordinates": [-74.96618125165998,23.09834303441093] } },
    {"type": "Feature", "properties": {"id": "cockburn-town-bahamas", "updt": "Aug 12, 2021", "name": "Cockburn Town, Bahamas", "ctry": "Cockburn Town, Bahamas", "car": "Yes"}, "geometry": {"type": "Point", "coordinates": [-74.53024406048193,24.052531948571584] } },
    {"type": "Feature", "properties": {"id": "governors-harbor-bahamas", "updt": "Aug 12, 2021", "name": "Governors Harbor, Bahamas", "ctry": "Governors Harbor, Bahamas", "car": "Yes"}, "geometry": {"type": "Point", "coordinates": [-76.24064323944411,25.196118966380908] } },
    {"type": "Feature", "properties": {"id": "duncan-town-bahamas", "updt": "Aug 12, 2021", "name": "Duncan Town, Bahamas", "ctry": "Duncan Town, Bahamas", "car": "Yes"}, "geometry": {"type": "Point", "coordinates": [-75.73346586435837,22.18326183392645] } },
    {"type": "Feature", "properties": {"id": "mayaguana-bahamas", "updt": "Aug 12, 2021", "name": "Mayaguana, Bahamas", "ctry": "Mayaguana, Bahamas", "car": "Yes"}, "geometry": {"type": "Point", "coordinates": [-73.06413181783864,22.40156502331459] } },
    {"type": "Feature", "properties": {"id": "st-davids-bermuda", "updt": "Aug 12, 2021", "name": "St. David’s, Bermuda", "ctry": "St. David’s, Bermuda", "car": "Yes"}, "geometry": {"type": "Point", "coordinates": [-64.76950878757836,32.3122346211652] } },
    {"type": "Feature", "properties": {"id": "nassau-bahamas", "updt": "Aug 12, 2021", "name": "Nassau, Bahamas", "ctry": "Nassau, Bahamas", "car": "Yes"}, "geometry": {"type": "Point", "coordinates": [-77.3402518354711,25.067038149721668] } },
    {"type": "Feature", "properties": {"id": "crooked-island-bahamas", "updt": "Aug 12, 2021", "name": "Crooked Island, Bahamas", "ctry": "Crooked Island, Bahamas", "car": "Yes"}, "geometry": {"type": "Point", "coordinates": [-74.19499039172881,22.629711836470307] } },
    {"type": "Feature", "properties": {"id": "providenciales-turks-and-caicos-islands", "updt": "Aug 12, 2021", "name": "Providenciales, Turks and Caicos Islands", "ctry": "Providenciales, Turks and Caicos Islands", "car": "Yes"}, "geometry": {"type": "Point", "coordinates": [-72.12023600213028,21.851092241181135] } },
    {"type": "Feature", "properties": {"id": "eight-mile-rock-bahamas", "updt": "Oct 6, 2021", "name": "Eight-Mile Rock, Bahamas", "ctry": "Eight-Mile Rock, Bahamas", "car": "Yes"}, "geometry": {"type": "Point", "coordinates": [-78.80286066262627,26.539625615887786] } },
    {"type": "Feature", "properties": {"id": "port-of-spain-trinidad-and-tobago", "updt": "Oct 6, 2021", "name": "Port of Spain, Trinidad and Tobago", "ctry": "Port of Spain, Trinidad and Tobago", "car": "Yes"}, "geometry": {"type": "Point", "coordinates": [-61.516679060663506,10.649788927296242] } },
    {"type": "Feature", "properties": {"id": "cat-island-bahamas", "updt": "Oct 28, 2021", "name": "Cat Island, Bahamas", "ctry": "Cat Island, Bahamas", "car": "Yes"}, "geometry": {"type": "Point", "coordinates": [-75.52589765202667,24.403328545640875] } },
    {"type": "Feature", "properties": {"id": "half-moon-bay-cayman-islands", "updt": "Oct 6, 2021", "name": "Half Moon Bay, Cayman Islands", "ctry": "Half Moon Bay, Cayman Islands", "car": "Yes"}, "geometry": {"type": "Point", "coordinates": [-81.16677500363241,19.282958272408933] } },
    {"type": "Feature", "properties": {"id": "caves-point-bahamas", "updt": "Aug 12, 2021", "name": "Caves Point, Bahamas", "ctry": "Caves Point, Bahamas", "car": "Yes"}, "geometry": {"type": "Point", "coordinates": [-77.45299589622712,25.06845347286773] } },
    {"type": "Feature", "properties": {"id": "current-bahamas", "updt": "Aug 12, 2021", "name": "Current, Bahamas", "ctry": "Current, Bahamas", "car": "Yes"}, "geometry": {"type": "Point", "coordinates": [-76.78766433630425,25.407832959532726] } },
    {"type": "Feature", "properties": {"id": "sandy-point-bahamas", "updt": "Aug 12, 2021", "name": "Sandy Point, Bahamas", "ctry": "Sandy Point, Bahamas", "car": "Yes"}, "geometry": {"type": "Point", "coordinates": [-77.39952913722855,26.025208986230695] } },
    {"type": "Feature", "properties": {"id": "hawksbill-bahamas", "updt": "Aug 12, 2021", "name": "Hawksbill, Bahamas", "ctry": "Hawksbill, Bahamas", "car": "Yes"}, "geometry": {"type": "Point", "coordinates": [-78.73684508439229,26.51690828149026] } },
    {"type": "Feature", "properties": {"id": "belize-city-belize", "updt": "Aug 12, 2021", "name": "Belize City, Belize", "ctry": "Belize City, Belize", "car": "Yes"}, "geometry": {"type": "Point", "coordinates": [-88.18161378425486,17.495546959038734] } },
    {"type": "Feature", "properties": {"id": "bull-bay-jamaica", "updt": "Aug 12, 2021", "name": "Bull Bay, Jamaica", "ctry": "Bull Bay, Jamaica", "car": "Yes"}, "geometry": {"type": "Point", "coordinates": [-76.666668328269,17.949676769482465] } },
    {"type": "Feature", "properties": {"id": "cayman-brac-cayman-islands", "updt": "Aug 12, 2021", "name": "Cayman Brac, Cayman Islands", "ctry": "Cayman Brac, Cayman Islands", "car": "Yes"}, "geometry": {"type": "Point", "coordinates": [-79.87764017468038,19.690333157003863] } },
    {"type": "Feature", "properties": {"id": "crown-haven-bahamas", "updt": "Aug 12, 2021", "name": "Crown Haven, Bahamas", "ctry": "Crown Haven, Bahamas", "car": "Yes"}, "geometry": {"type": "Point", "coordinates": [-77.82195315438537,26.912504093122436] } },
    {"type": "Feature", "properties": {"id": "riding-point-bahamas", "updt": "Aug 12, 2021", "name": "Riding Point, Bahamas", "ctry": "Riding Point, Bahamas", "car": "Yes"}, "geometry": {"type": "Point", "coordinates": [-78.24587863532254,26.616743586869234] } },
    {"type": "Feature", "properties": {"id": "morant-point-jamaica", "updt": "Aug 12, 2021", "name": "Morant Point, Jamaica", "ctry": "Morant Point, Jamaica", "car": "Yes"}, "geometry": {"type": "Point", "coordinates": [-76.18434445120171,17.918365683336702] } },
    {"type": "Feature", "properties": {"id": "matthew-town-bahamas", "updt": "Aug 12, 2021", "name": "Matthew Town, Bahamas", "ctry": "Matthew Town, Bahamas", "car": "Yes"}, "geometry": {"type": "Point", "coordinates": [-73.68307669187328,20.950513473241386] } },
    {"type": "Feature", "properties": {"id": "port-au-prince-haiti", "updt": "Aug 12, 2021", "name": "Port-au-Prince, Haiti", "ctry": "Port-au-Prince, Haiti", "car": "Yes"}, "geometry": {"type": "Point", "coordinates": [-72.34313623484962,18.542691638169828] } },
    {"type": "Feature", "properties": {"id": "port-antonio-jamaica", "updt": "Aug 12, 2021", "name": "Port Antonio, Jamaica", "ctry": "Port Antonio, Jamaica", "car": "Yes"}, "geometry": {"type": "Point", "coordinates": [-76.44607954957709,18.176323584205534] } },
    {"type": "Feature", "properties": {"id": "negril-jamaica", "updt": "Aug 12, 2021", "name": "Negril, Jamaica", "ctry": "Negril, Jamaica", "car": "Yes"}, "geometry": {"type": "Point", "coordinates": [-78.34825670000004,18.27866855000019] } },
    {"type": "Feature", "properties": {"id": "black-river-jamaica", "updt": "Aug 12, 2021", "name": "Black River, Jamaica", "ctry": "Black River, Jamaica", "car": "Yes"}, "geometry": {"type": "Point", "coordinates": [-77.84837205,18.023692299999738] } },
    {"type": "Feature", "properties": {"id": "paget-bermuda", "updt": "Aug 12, 2021", "name": "Paget, Bermuda", "ctry": "Paget, Bermuda", "car": "Yes"}, "geometry": {"type": "Point", "coordinates": [-64.78869822710942,32.28053606150149] } },
    {"type": "Feature", "properties": {"id": "needhams-point-barbados", "updt": "Aug 12, 2021", "name": "Needham’s Point, Barbados", "ctry": "Needham’s Point, Barbados", "car": "Yes"}, "geometry": {"type": "Point", "coordinates": [-59.61272533131715,13.078788771964213] } },
    {"type": "Feature", "properties": {"id": "rodney-bay-saint-lucia", "updt": "Aug 12, 2021", "name": "Rodney Bay, Saint Lucia", "ctry": "Rodney Bay, Saint Lucia", "car": "Yes"}, "geometry": {"type": "Point", "coordinates": [-60.988554434791894,14.035627463902898] } },
    {"type": "Feature", "properties": {"id": "st-johns-antigua-and-barbuda", "updt": "Aug 12, 2021", "name": "St. John’s, Antigua and Barbuda", "ctry": "St. John’s, Antigua and Barbuda", "car": "Yes"}, "geometry": {"type": "Point", "coordinates": [-61.857938584537024,17.051483656003057] } },
    {"type": "Feature", "properties": {"id": "dickenson-bay-antigua-and-barbuda", "updt": "Aug 12, 2021", "name": "Dickenson Bay, Antigua and Barbuda", "ctry": "Dickenson Bay, Antigua and Barbuda", "car": "Yes"}, "geometry": {"type": "Point", "coordinates": [-61.846850070591344,17.159562620478283] } },
    {"type": "Feature", "properties": {"id": "canefield-dominica", "updt": "Aug 12, 2021", "name": "Canefield, Dominica", "ctry": "Canefield, Dominica", "car": "Yes"}, "geometry": {"type": "Point", "coordinates": [-61.3848432165572,15.303329396919509] } },
    {"type": "Feature", "properties": {"id": "harbour-view-jamaica", "updt": "Aug 12, 2021", "name": "Harbour View, Jamaica", "ctry": "Harbour View, Jamaica", "car": "Yes"}, "geometry": {"type": "Point", "coordinates": [-76.71686360521022,17.949676769482465] } },
    {"type": "Feature", "properties": {"id": "nanny-cay-virgin-islands-u-k-", "updt": "Aug 12, 2021", "name": "Nanny Cay, Virgin Islands (U.K.)", "ctry": "Nanny Cay, Virgin Islands (U.K.)", "car": "Yes"}, "geometry": {"type": "Point", "coordinates": [-64.59724328461294,18.414781849275727] } }
    
                ]
                }